{"version": 0.6, "generator": "Overpass API 0.7.62.1 084b4234", "osm3s": {"timestamp_osm_base": "2024-05-14T20:37:00Z", "copyright": "The data included in this document is from www.openstreetmap.org. The data is made available under ODbL."}, "elements": [{"type": "node", "id": 1423114427, "lat": 6.5417787, "lon": 3.3674144, "tags": {"highway": "bus_stop", "name": "BRT Palmgrove", "public_transport": "platform"}}, {"type": "node", "id": 1423114428, "lat": 6.5465534, "lon": 3.367578, "tags": {"highway": "bus_stop", "name": "BRT Obanikoro", "public_transport": "platform"}}, {"type": "node", "id": 1423114431, "lat": 6.5983761, "lon": 3.3864292, "tags": {"bus": "yes", "highway": "bus_stop", "name": "BRT Ketu", "public_transport": "platform"}}, {"type": "node", "id": 1577482636, "lat": 6.5999633, "lon": 3.2957016, "tags": {"bus": "yes", "highway": "bus_stop", "name": "Bakery", "public_transport": "platform"}}, {"type": "node", "id": 1577482674, "lat": 6.6001405, "lon": 3.2958039, "tags": {"bus": "yes", "highway": "bus_stop", "name": "Bakery", "public_transport": "platform"}}, {"type": "node", "id": 1577482955, "lat": 6.6004662, "lon": 3.2971691, "tags": {"bus": "yes", "highway": "bus_stop", "name": "Micom", "public_transport": "platform"}}, {"type": "node", "id": 1578567850, "lat": 6.6004692, "lon": 3.2974485, "tags": {"bus": "yes", "highway": "bus_stop", "name": "Micom", "public_transport": "platform"}}, {"type": "node", "id": 2335292454, "lat": 6.6057316, "lon": 3.3998072, "tags": {"bus": "yes", "highway": "bus_stop", "name": "Mile 12 Bus Stop", "public_transport": "stop_position"}}, {"type": "node", "id": 2541435553, "lat": 6.5658262, "lon": 3.251099, "tags": {"bus": "yes", "highway": "bus_stop", "name": "Oko-Filling", "public_transport": "platform"}}, {"type": "node", "id": 3085114169, "lat": 6.5462266, "lon": 3.2722601, "tags": {"highway": "bus_stop", "name": "Synagogue Bus-Stop"}}, {"type": "node", "id": 4247719889, "lat": 6.6924877, "lon": 3.2573919, "tags": {"highway": "bus_stop", "name": "Toll Gate Ota"}}, {"type": "node", "id": 5206471624, "lat": 6.5538125, "lon": 3.325181, "tags": {"highway": "bus_stop", "name": "Stop over bus stop"}}, {"type": "node", "id": 5206477223, "lat": 6.5521983, "lon": 3.3288226, "tags": {"highway": "bus_stop", "name": "Ajao Estate main entrance"}}, {"type": "node", "id": 5212289128, "lat": 6.5520558, "lon": 3.3291611, "tags": {"highway": "bus_stop", "name": "Junction bus stop"}}, {"type": "node", "id": 5649291344, "lat": 6.6154055, "lon": 3.3572665, "tags": {"bus": "yes", "highway": "bus_stop", "name": "Ikeja City Mall", "public_transport": "platform"}}, {"type": "node", "id": 5649291345, "lat": 6.6153805, "lon": 3.3569029, "tags": {"bus": "yes", "highway": "bus_stop", "name": "Ikeja City Mall", "public_transport": "platform"}}, {"type": "node", "id": 5665683280, "lat": 6.5412545, "lon": 3.3084254, "tags": {"highway": "bus_stop"}}, {"type": "node", "id": 5674250721, "lat": 6.6735129, "lon": 3.4789258, "tags": {"highway": "bus_stop", "name": "Elele Bus stop"}}, {"type": "node", "id": 5674250722, "lat": 6.6721319, "lon": 3.4777726, "tags": {"highway": "bus_stop", "name": "Lawyer"}}, {"type": "node", "id": 5674250723, "lat": 6.6196284, "lon": 3.474762, "tags": {"highway": "bus_stop", "name": "Ogolonto"}}, {"type": "node", "id": 5674250821, "lat": 6.6730292, "lon": 3.4784523, "tags": {"highway": "bus_stop", "name": "Agape"}}, {"type": "node", "id": 5674250822, "lat": 6.6566872, "lon": 3.4759899, "tags": {"highway": "bus_stop", "name": "Asolo"}}, {"type": "node", "id": 5674250921, "lat": 6.6726183, "lon": 3.4781867, "tags": {"highway": "bus_stop", "name": "Major"}}, {"type": "node", "id": 5674251021, "lat": 6.6254126, "lon": 3.4839309, "tags": {"highway": "bus_stop", "name": "Agric"}}, {"type": "node", "id": 6291068267, "lat": 6.6245943, "lon": 3.4927082, "tags": {"bus": "yes", "highway": "bus_stop", "name": "Aruna Bus Stop", "operator": "Primero", "public_transport": "stop_position"}}, {"type": "node", "id": 6291068268, "lat": 6.6247402, "lon": 3.4917301, "tags": {"bus": "yes", "highway": "bus_stop", "name": "Aruna Bus Stop", "public_transport": "stop_position"}}, {"type": "node", "id": 6291068704, "lat": 6.6253321, "lon": 3.4878266, "tags": {"bus": "yes", "highway": "bus_stop", "name": "Agric Bus Stop", "public_transport": "stop_position"}}, {"type": "node", "id": 6291068705, "lat": 6.6255612, "lon": 3.4863272, "tags": {"bus": "yes", "highway": "bus_stop", "name": "Agric Bus Stop", "public_transport": "stop_position"}}, {"type": "node", "id": 6291068706, "lat": 6.6253867, "lon": 3.4840018, "tags": {"bus": "yes", "highway": "bus_stop", "name": "Agric", "public_transport": "stop_position"}}, {"type": "node", "id": 6291069012, "lat": 6.6195958, "lon": 3.4731978, "tags": {"bus": "yes", "highway": "bus_stop", "name": "Majidun Ogolonto Bus Stop", "public_transport": "stop_position"}}, {"type": "node", "id": 6291069013, "lat": 6.6196784, "lon": 3.4722322, "tags": {"bus": "yes", "highway": "bus_stop", "name": "Majidun Ogolonto Bus Stop", "public_transport": "stop_position"}}, {"type": "node", "id": 6291069035, "lat": 6.6189812, "lon": 3.4629496, "tags": {"bus": "yes", "highway": "bus_stop", "name": "Majidun Awori Bus Stop", "public_transport": "stop_position"}}, {"type": "node", "id": 6291069036, "lat": 6.6187297, "lon": 3.4620357, "tags": {"bus": "yes", "highway": "bus_stop", "name": "Majidun Awori Bus Stop", "public_transport": "stop_position"}}, {"type": "node", "id": 6291069267, "lat": 6.6098363, "lon": 3.4220803, "tags": {"bus": "yes", "highway": "bus_stop", "name": "Irawo Bus Stop", "public_transport": "stop_position"}}, {"type": "node", "id": 6291069371, "lat": 6.6102786, "lon": 3.4212542, "tags": {"bus": "yes", "highway": "bus_stop", "name": "Irawo Bus Stop", "public_transport": "stop_position"}}, {"type": "node", "id": 6291069506, "lat": 6.6120477, "lon": 3.4155384, "tags": {"bus": "yes", "highway": "bus_stop", "name": "Idera Bus Stop", "public_transport": "stop_position"}}, {"type": "node", "id": 6291069507, "lat": 6.6118878, "lon": 3.4145755, "tags": {"bus": "yes", "highway": "bus_stop", "name": "Idera Bus Stop", "public_transport": "stop_position"}}, {"type": "node", "id": 6291069508, "lat": 6.608584, "lon": 3.4092298, "tags": {"bus": "yes", "highway": "bus_stop", "name": "Onirin Bus Stop", "public_transport": "stop_position"}}, {"type": "node", "id": 6291069559, "lat": 6.6078646, "lon": 3.4086183, "tags": {"bus": "yes", "highway": "bus_stop", "name": "Onirin Bus Stop", "public_transport": "stop_position"}}, {"type": "node", "id": 6291069586, "lat": 6.6044942, "lon": 3.4019369, "tags": {"bus": "yes", "highway": "bus_stop", "name": "Mile 12 Bus Stop", "public_transport": "stop_position"}}, {"type": "node", "id": 6291361173, "lat": 6.5968718, "lon": 3.3856605, "tags": {"bus": "yes", "highway": "bus_stop", "public_transport": "stop_position"}}, {"type": "node", "id": 6291361174, "lat": 6.587407, "lon": 3.3787519, "tags": {"bus": "yes", "highway": "bus_stop", "public_transport": "stop_position"}}, {"type": "node", "id": 6291361179, "lat": 6.5873857, "lon": 3.378481, "tags": {"bus": "yes", "highway": "bus_stop", "public_transport": "stop_position"}}, {"type": "node", "id": 6291362221, "lat": 6.596762, "lon": 3.385338, "tags": {"bus": "yes", "highway": "bus_stop", "public_transport": "stop_position"}}, {"type": "node", "id": 6518697909, "lat": 6.5706576, "lon": 3.3457661, "tags": {"bus": "yes", "highway": "bus_stop", "public_transport": "platform"}}, {"type": "node", "id": 6518697911, "lat": 6.5756698, "lon": 3.3437471, "tags": {"bus": "yes", "highway": "bus_stop", "public_transport": "platform"}}, {"type": "node", "id": 6518697912, "lat": 6.5796512, "lon": 3.3421073, "tags": {"bus": "yes", "highway": "bus_stop", "public_transport": "platform"}}, {"type": "node", "id": 6518697915, "lat": 6.5873755, "lon": 3.3389863, "tags": {"bus": "yes", "highway": "bus_stop", "public_transport": "platform"}}, {"type": "node", "id": 6871106617, "lat": 6.5980531, "lon": 3.3867844, "tags": {"bus": "yes", "highway": "bus_stop", "name": "BRT Ketu", "public_transport": "platform"}}, {"type": "node", "id": 6871106823, "lat": 6.6179855, "lon": 3.3645471, "tags": {"bus": "yes", "highway": "bus_stop", "public_transport": "platform"}}, {"type": "node", "id": 6871106824, "lat": 6.6180415, "lon": 3.3648517, "tags": {"bus": "yes", "highway": "bus_stop", "public_transport": "platform"}}, {"type": "node", "id": 6871106873, "lat": 6.6168984, "lon": 3.36537, "tags": {"bus": "yes", "highway": "bus_stop", "public_transport": "platform"}}, {"type": "node", "id": 6871106874, "lat": 6.6170184, "lon": 3.3657733, "tags": {"bus": "yes", "highway": "bus_stop", "public_transport": "platform"}}, {"type": "node", "id": 6967079690, "lat": 6.5584274, "lon": 3.3671172, "tags": {"bus": "yes", "highway": "bus_stop", "public_transport": "platform"}}, {"type": "node", "id": 6967079715, "lat": 6.5589729, "lon": 3.3669627, "tags": {"bus": "yes", "bus_stop:category": "BRT", "highway": "bus_stop", "name": "Anthony Bus Stop", "public_transport": "platform"}}, {"type": "node", "id": 6967079716, "lat": 6.5570516, "lon": 3.3667482, "tags": {"bus": "yes", "bus_stop:category": "BRT", "highway": "bus_stop", "name": "Anthony Bus Stop", "public_transport": "platform"}}, {"type": "node", "id": 6967418559, "lat": 6.5750088, "lon": 3.36981, "tags": {"bus": "yes", "bus_stop:category": "BRT", "highway": "bus_stop", "name": "Maryland Bus Stop", "public_transport": "platform"}}, {"type": "node", "id": 6967418560, "lat": 6.5742742, "lon": 3.3689705, "tags": {"bus": "yes", "bus_stop:category": "BRT", "highway": "bus_stop", "name": "Maryland Bus Stop", "public_transport": "platform"}}, {"type": "node", "id": 6992641421, "lat": 6.6180254, "lon": 3.3606852, "tags": {"bus": "yes", "highway": "bus_stop", "name": "Barracks", "public_transport": "platform"}}, {"type": "node", "id": 6997535241, "lat": 6.6112012, "lon": 3.2958755, "tags": {"bus": "yes", "highway": "bus_stop", "name": "Alimosho", "public_transport": "platform"}}, {"type": "node", "id": 6997535242, "lat": 6.6116652, "lon": 3.2959545, "tags": {"bus": "yes", "highway": "bus_stop", "name": "Alimosho", "public_transport": "platform"}}, {"type": "node", "id": 7263913870, "lat": 6.6224962, "lon": 3.4992762, "tags": {"bus": "yes", "highway": "bus_stop", "name": "Benson", "public_transport": "platform"}}, {"type": "node", "id": 7377223107, "lat": 6.6006251, "lon": 3.3009008, "tags": {"bus": "yes", "highway": "bus_stop", "name": "Vulcanizer Bus Stop", "public_transport": "platform"}}, {"type": "node", "id": 9127712617, "lat": 6.5947556, "lon": 3.3360786, "tags": {"bus": "yes", "highway": "bus_stop", "name": "Ikeja Along", "public_transport": "platform"}}]}